[
  {"id": "cafeteria", "nombre": "Cafetería Principal", "piso": 1, "categoria": "servicios", "detalles": "Cafetería principal de la facultad", "coordenadas": {"lat": 20.7044, "lng": -100.4439}, "visible": true},
  {"id": "banio-h", "nombre": "Baño Caballeros", "piso": 1, "categoria": "servicios", "detalles": "Baño para caballeros", "coordenadas": {"lat": 20.7047, "lng": -100.4438}, "visible": true},
  {"id": "banio-m", "nombre": "Baño Damas", "piso": 1, "categoria": "servicios", "detalles": "Baño para damas", "coordenadas": {"lat": 20.7046, "lng": -100.4438}, "visible": true},
  {"id": "libreria", "nombre": "Librería", "piso": 1, "categoria": "servicios", "detalles": "Venta de libros de texto", "coordenadas": {"lat": 20.7043, "lng": -100.4437}, "visible": true},
  {"id": "seguridad", "nombre": "Protección Civil", "piso": 1, "categoria": "servicios", "detalles": "Oficina de emergencias", "coordenadas": {"lat": 20.7049, "lng": -100.4436}, "visible": true},
  {"id": "aula-101", "nombre": "Aula 101", "piso": 1, "categoria": "academicos", "detalles": "Aula capacidad 40", "coordenadas": {"lat": 20.7044, "lng": -100.4440}, "visible": true},
  {"id": "aula-102", "nombre": "Aula 102", "piso": 1, "categoria": "academicos", "detalles": "Aula capacidad 40", "coordenadas": {"lat": 20.7044, "lng": -100.4439}, "visible": true},
  {"id": "lab-1", "nombre": "Laboratorio 1", "piso": 1, "categoria": "academicos", "detalles": "Lab de cómputo", "coordenadas": {"lat": 20.7043, "lng": -100.4439}, "visible": true},
  {"id": "lab-redes", "nombre": "Lab Redes", "piso": 1, "categoria": "academicos", "detalles": "Laboratorio de redes", "coordenadas": {"lat": 20.7041, "lng": -100.4440}, "visible": true},
  {"id": "biblioteca", "nombre": "Biblioteca", "piso": 1, "categoria": "academicos", "detalles": "Biblioteca y sala de estudio", "coordenadas": {"lat": 20.7040, "lng": -100.4439}, "visible": true},
  {"id": "direccion", "nombre": "Dirección", "piso": 1, "categoria": "administrativos", "detalles": "Dirección de la Facultad", "coordenadas": {"lat": 20.7049, "lng": -100.4438}, "visible": true},
  {"id": "secretaria", "nombre": "Secretaría", "piso": 1, "categoria": "administrativos", "detalles": "Secretaría Académica", "coordenadas": {"lat": 20.7048, "lng": -100.4438}, "visible": true},
  {"id": "estacionamiento", "nombre": "Estacionamiento", "piso": 1, "categoria": "comunes", "detalles": "Estacionamiento", "coordenadas": {"lat": 20.7050, "lng": -100.4441}, "visible": true},
  {"id": "entrada", "nombre": "Entrada Principal", "piso": 1, "categoria": "comunes", "detalles": "Acceso principal", "coordenadas": {"lat": 20.7045, "lng": -100.4440}, "visible": true},
  {"id": "patio", "nombre": "Patio Central", "piso": 1, "categoria": "comunes", "detalles": "Área común", "coordenadas": {"lat": 20.7046, "lng": -100.4438}, "visible": true},
  {"id": "elevador", "nombre": "Elevador", "piso": 1, "categoria": "otros", "detalles": "Ascensor", "coordenadas": {"lat": 20.7044, "lng": -100.4438}, "visible": true},
  {"id": "escaleras-1", "nombre": "Escaleras 1", "piso": 1, "categoria": "otros", "detalles": "Escaleras", "coordenadas": {"lat": 20.7043, "lng": -100.4438}, "visible": true},
  {"id": "aula-201", "nombre": "Aula 201", "piso": 2, "categoria": "academicos", "detalles": "Aula piso 2", "coordenadas": {"lat": 20.7044, "lng": -100.4440}, "visible": true},
  {"id": "lab-investigacion", "nombre": "Lab Investigación", "piso": 2, "categoria": "academicos", "detalles": "Lab de IA y Big Data", "coordenadas": {"lat": 20.7043, "lng": -100.4439}, "visible": true},
  {"id": "lab-ciberseguridad", "nombre": "Lab Ciberseguridad", "piso": 2, "categoria": "academicos", "detalles": "Lab de ciberseguridad", "coordenadas": {"lat": 20.7043, "lng": -100.4440}, "visible": true},
  {"id": "sala-video", "nombre": "Sala de Video", "piso": 2, "categoria": "academicos", "detalles": "Videoconferencias", "coordenadas": {"lat": 20.7042, "lng": -100.4439}, "visible": true},
  {"id": "aula-301", "nombre": "Aula 301", "piso": 3, "categoria": "academicos", "detalles": "Aula posgrado", "coordenadas": {"lat": 20.7044, "lng": -100.4440}, "visible": true},
  {"id": "lab-bigdata", "nombre": "Lab Big Data", "piso": 3, "categoria": "academicos", "detalles": "Análisis de datos", "coordenadas": {"lat": 20.7043, "lng": -100.4439}, "visible": true},
  {"id": "lab-ml", "nombre": "Lab ML", "piso": 3, "categoria": "academicos", "detalles": "Machine Learning", "coordenadas": {"lat": 20.7041, "lng": -100.4440}, "visible": true},
  {"id": "coord-posgrado", "nombre": "Coord Posgrado", "piso": 3, "categoria": "administrativos", "detalles": "Coordinación de posgrado", "coordenadas": {"lat": 20.7049, "lng": -100.4438}, "visible": true}
]